{"type": "FeatureCollection", "features": [{"type": "Feature", "geometry": {"type": "Point", "coordinates": [-70.624555, -33.443865]}, "properties": {"cartodb_id": 6, "telefono": "", "web": "http://casamuseoeduardofrei.cl\n", "direccion": "Hindenburg 683", "nombre": "Casa Museo Eduardo Frei Montalva", "longitud": -70.6245547, "latitud": -33.4438654, "comuna": "Providencia", "precio": null, "horarios": null, "nick": "frei"}}, {"type": "Feature", "geometry": {"type": "Point", "coordinates": [-70.658962, -33.435345]}, "properties": {"cartodb_id": 57, "telefono": null, "web": "http://estacionmapocho.cl", "direccion": "Avenida Presidente Balmaceda", "nombre": "Centro Cultural Estaci\u00c3\u00b3n Mapocho", "longitud": -70.6589617, "latitud": -33.4353455, "comuna": "Santiago", "precio": null, "horarios": null, "nick": null}}, {"type": "Feature", "geometry": {"type": "Point", "coordinates": [-70.655257, -33.444669]}, "properties": {"cartodb_id": 70, "telefono": null, "web": "http://galeriagm.cultura.gob.cl", "direccion": "Alameda 1381", "nombre": "Galeria Gabriela Mistral", "longitud": -70.655257, "latitud": -33.444669, "comuna": "Santiago", "precio": null, "horarios": null, "nick": null}}, {"type": "Feature", "geometry": {"type": "Point", "coordinates": [-70.626957, -33.448183]}, "properties": {"cartodb_id": 79, "telefono": null, "web": null, "direccion": "Emilio Vaisse 564", "nombre": "Galeria Infrarrojo", "longitud": -70.6269574, "latitud": -33.4481832, "comuna": "Providencia", "precio": null, "horarios": "Ma-Sa 12-20", "nick": "ir"}}, {"type": "Feature", "geometry": {"type": "Point", "coordinates": [-70.730169, -33.329096]}, "properties": {"cartodb_id": 12, "telefono": "", "web": "", "direccion": "Calle Ca\u00c3\u00b1averal 200", "nombre": "Museo de Autos Antiguos Chile", "longitud": -70.730169, "latitud": -33.3290959, "comuna": "Quilicura", "precio": null, "horarios": null, "nick": null}}, {"type": "Feature", "geometry": {"type": "Point", "coordinates": [-70.648509, -33.42489]}, "properties": {"cartodb_id": 10, "telefono": "224971284", "web": "artdec.cl", "direccion": "Recoleta 683", "nombre": "Museo de Artes Decorativas", "longitud": -70.6485087, "latitud": -33.4248899, "comuna": "Recoleta", "precio": null, "horarios": null, "nick": null}}, {"type": "Feature", "geometry": {"type": "Point", "coordinates": [-70.642326, -33.427442]}, "properties": {"cartodb_id": 4, "telefono": "", "web": "http://www.centropatrimonialrecoletadominica.cl/", "direccion": "Recoleta 683", "nombre": "Centro Patrimonial Recoleta Dominica", "longitud": -70.6423261, "latitud": -33.4274421, "comuna": "Recoleta", "precio": null, "horarios": null, "nick": "dominica"}}, {"type": "Feature", "geometry": {"type": "Point", "coordinates": [-70.654294, -33.438926]}, "properties": {"cartodb_id": 9, "telefono": "229281500", "web": "precolombino.cl\n", "direccion": "Bandera 361", "nombre": "Museo de Arte Precolombino", "longitud": -70.654294, "latitud": -33.4389259, "comuna": "Santiago", "precio": null, "horarios": null, "nick": null}}, {"type": "Feature", "geometry": {"type": "Point", "coordinates": [-70.597648, -33.39688]}, "properties": {"cartodb_id": 46, "telefono": null, "web": "http://www.galeriaisabelaninat.cl/", "direccion": "Espoz 3100", "nombre": "Galer\u00c3\u00ada Isabel Aninat", "longitud": -70.597648, "latitud": -33.39688, "comuna": "Vitacura", "precio": null, "horarios": null, "nick": null}}, {"type": "Feature", "geometry": {"type": "Point", "coordinates": [-70.650108, -33.443809]}, "properties": {"cartodb_id": 7, "telefono": "22639 8737", "web": "http://museosanfrancisco.com", "direccion": "Alameda 834", "nombre": "Museo Colonial de San Francisco", "longitud": -70.6501081, "latitud": -33.4438088, "comuna": "Santiago", "precio": null, "horarios": null, "nick": null}}, {"type": "Feature", "geometry": {"type": "Point", "coordinates": [-70.573158, -33.404567]}, "properties": {"cartodb_id": 67, "telefono": "226606180", "web": "http://www.corpartes.cl/", "direccion": "Rosario Norte 660", "nombre": "Corpartes 660", "longitud": -70.573158, "latitud": -33.404567, "comuna": "Las Condes", "precio": null, "horarios": null, "nick": "corpartes"}}, {"type": "Feature", "geometry": {"type": "Point", "coordinates": [-70.59483, -33.428817]}, "properties": {"cartodb_id": 47, "telefono": null, "web": "http://galerianac.cl", "direccion": "Juan de Dios Vial 1359", "nombre": "Galer\u00c3\u00ada NAC", "longitud": -70.59483, "latitud": -33.428817, "comuna": "Providencia", "precio": null, "horarios": null, "nick": null}}, {"type": "Feature", "geometry": {"type": "Point", "coordinates": [-70.614027, -33.442915]}, "properties": {"cartodb_id": 19, "telefono": "", "web": "http://museocarabineros.cl", "direccion": "Antonio Varas 1842", "nombre": "Museo Hist\u00c3\u00b3rico de Carabineros de Chile", "longitud": -70.6140267, "latitud": -33.4429145, "comuna": "Providencia", "precio": null, "horarios": null, "nick": null}}, {"type": "Feature", "geometry": {"type": "Point", "coordinates": [-70.642159, -33.43718]}, "properties": {"cartodb_id": 71, "telefono": "+ 562 26388973", "web": null, "direccion": "Merced 349", "nombre": "Galeria EKHO", "longitud": -70.642159, "latitud": -33.43718, "comuna": "Santiago", "precio": null, "horarios": null, "nick": "ekho"}}, {"type": "Feature", "geometry": {"type": "Point", "coordinates": [-70.640384, -33.475095]}, "properties": {"cartodb_id": 73, "telefono": null, "web": "http://galeriatallerdelmono.cl/", "direccion": "Placer 653", "nombre": "Galeria Taller del Mono", "longitud": -70.640384, "latitud": -33.475095, "comuna": "Santiago", "precio": null, "horarios": null, "nick": "mono"}}, {"type": "Feature", "geometry": {"type": "Point", "coordinates": [-70.638149, -33.438402]}, "properties": {"cartodb_id": 8, "telefono": "", "web": "", "direccion": "Alameda 227 edificio B nivel -1 ", "nombre": "Museo de Arte Popular Americano Tomas Lago", "longitud": -70.6754491, "latitud": -33.4408226, "comuna": "Santiago", "precio": null, "horarios": null, "nick": null}}, {"type": "Feature", "geometry": {"type": "Point", "coordinates": [-70.642771, -33.441975]}, "properties": {"cartodb_id": 52, "telefono": null, "web": "http://www.extension.uc.cl/", "direccion": "Alameda 390", "nombre": "Centro Extensi\u00c3\u00b3n Universidad Cat\u00c3\u00b3lica", "longitud": -70.6444906, "latitud": -33.441441, "comuna": "Santiago", "precio": null, "horarios": null, "nick": null}}, {"type": "Feature", "geometry": {"type": "Point", "coordinates": [-70.64837, -33.4448]}, "properties": {"cartodb_id": 26, "telefono": "", "web": "londres38.cl", "direccion": "Londres 38", "nombre": "Museo Londres 38 Sitio de Memoria", "longitud": -70.9122802, "latitud": -33.4711859, "comuna": "Santiago", "precio": null, "horarios": null, "nick": null}}, {"type": "Feature", "geometry": {"type": "Point", "coordinates": [-70.598137, -33.401909]}, "properties": {"cartodb_id": 60, "telefono": "227993180 ", "web": "http://www.amsgaleria.cl/", "direccion": "Nueva Costanera 3723", "nombre": "Galeria AMS Marlborough", "longitud": -70.598137, "latitud": -33.401909, "comuna": "Vitacura", "precio": null, "horarios": null, "nick": null}}, {"type": "Feature", "geometry": null, "properties": {"cartodb_id": 82, "telefono": null, "web": null, "direccion": "Alameda 123", "nombre": "Galer\u00c3\u00ada BECH", "longitud": null, "latitud": null, "comuna": "Santiago", "precio": null, "horarios": null, "nick": null}}, {"type": "Feature", "geometry": {"type": "Point", "coordinates": [-70.595878, -33.416081]}, "properties": {"cartodb_id": 69, "telefono": "229507195", "web": "http://www.lascondes.cl/cultura/sala.html", "direccion": "Apoquindo 3300 (piso 2)", "nombre": "Sala de Arte Las Condes", "longitud": -70.595878, "latitud": -33.416081, "comuna": "Las Condes", "precio": null, "horarios": "Lu-Vi: 10-19. Sa: 10-14", "nick": null}}, {"type": "Feature", "geometry": {"type": "Point", "coordinates": [-70.59352, -33.402088]}, "properties": {"cartodb_id": 61, "telefono": "222062177", "web": "https://www.galeriaartespacio.com/", "direccion": "Alonso de Cordova 2600", "nombre": "Galeria Artespacio", "longitud": -70.59352, "latitud": -33.402088, "comuna": "Vitacura", "precio": null, "horarios": null, "nick": null}}, {"type": "Feature", "geometry": {"type": "Point", "coordinates": [-70.598123, -33.401116]}, "properties": {"cartodb_id": 58, "telefono": null, "web": "http://www.galeriaanimal.cl/", "direccion": "Nueva Costanera 3731", "nombre": "Galer\u00c3\u00ada Animal", "longitud": -70.598123, "latitud": -33.401116, "comuna": "Vitacura", "precio": null, "horarios": null, "nick": null}}, {"type": "Feature", "geometry": {"type": "Point", "coordinates": [-70.540924, -33.477039]}, "properties": {"cartodb_id": 76, "telefono": null, "web": null, "direccion": "Av. Grecia 8787", "nombre": "Galer\u00c3\u00ada De Arte Chimkowe", "longitud": -70.540924, "latitud": -33.477039, "comuna": "Pe\u00c3\u00b1alolen", "precio": null, "horarios": null, "nick": "chimkowe"}}, {"type": "Feature", "geometry": {"type": "Point", "coordinates": [-70.642782, -33.437556]}, "properties": {"cartodb_id": 11, "telefono": "226383502", "web": "http://mavi.cl", "direccion": "Jos\u00c3\u00a9 Victorino Lastarria 307", "nombre": "Museo de Artes Visuales", "longitud": -70.6427817, "latitud": -33.4375565, "comuna": "Santiago", "precio": null, "horarios": null, "nick": "mavi"}}, {"type": "Feature", "geometry": {"type": "Point", "coordinates": [-70.64761, -33.432395]}, "properties": {"cartodb_id": 62, "telefono": null, "web": "www.cogaleria.com", "direccion": "Bellavista 594", "nombre": "Galeria CO", "longitud": -70.64761, "latitud": -33.432395, "comuna": "Providencia", "precio": null, "horarios": null, "nick": "co"}}, {"type": "Feature", "geometry": {"type": "Point", "coordinates": [-70.66593, -33.439953]}, "properties": {"cartodb_id": 77, "telefono": null, "web": null, "direccion": "Compa\u00c3\u00b1\u00c3\u00ada de Jes\u00c3\u00bas 2085", "nombre": "Galeria Lira", "longitud": -70.66593, "latitud": -33.439953, "comuna": "Santiago", "precio": null, "horarios": null, "nick": "lira"}}, {"type": "Feature", "geometry": {"type": "Point", "coordinates": [-70.629723, -33.430584]}, "properties": {"cartodb_id": 72, "telefono": "+ 562 2 27176276", "web": null, "direccion": "Melchor Concha\ny Toro 153", "nombre": "Galeria Espora", "longitud": -70.629723, "latitud": -33.430584, "comuna": "Santiago", "precio": null, "horarios": null, "nick": "espora"}}, {"type": "Feature", "geometry": {"type": "Point", "coordinates": [-70.565491, -33.451326]}, "properties": {"cartodb_id": 66, "telefono": " (02) 2266 0577 ", "web": "https://casamichoacan.wordpress.com/", "direccion": "Lynch Norte 164 ", "nombre": "Casa Museo Michoac\u00c3\u00a1n de los Guindos ", "longitud": -70.565491, "latitud": -33.451326, "comuna": "La Reina", "precio": null, "horarios": null, "nick": "michoacan"}}, {"type": "Feature", "geometry": {"type": "Point", "coordinates": [-70.639781, -33.439248]}, "properties": {"cartodb_id": 78, "telefono": null, "web": "http://www.gam.cl/", "direccion": "Alameda 227", "nombre": "Galeria de Arte Gabriela Mistral", "longitud": -70.639781, "latitud": -33.439248, "comuna": null, "precio": null, "horarios": null, "nick": "gam"}}, {"type": "Feature", "geometry": {"type": "Point", "coordinates": [-70.592916, -33.401971]}, "properties": {"cartodb_id": 45, "telefono": "+ 562 26648450\n", "web": "http://www.galeriaafa.com/", "direccion": "Alonso de C\u00c3\u00b3rdova 3788", "nombre": "Galer\u00c3\u00ada AFA", "longitud": -70.592916, "latitud": -33.401971, "comuna": "Vitacura", "precio": null, "horarios": null, "nick": null}}, {"type": "Feature", "geometry": {"type": "Point", "coordinates": [-70.538266, -33.418255]}, "properties": {"cartodb_id": 2, "telefono": "+56-2-2777 87 41 / +56-2-2737 87 12", "web": "http://www.fundacionneruda.org/es/la-chascona/informacion-visita", "direccion": "Fernando M\u00c3\u00a1rquez de la Plata 0192", "nombre": "Casa Museo La Chascona", "longitud": -70.6198868, "latitud": -33.4202424, "comuna": "Providencia", "precio": null, "horarios": null, "nick": "chascona"}}, {"type": "Feature", "geometry": {"type": "Point", "coordinates": [-70.61547, -33.542495]}, "properties": {"cartodb_id": 68, "telefono": null, "web": "http://www.monumentos.cl/catalogo/625/w3-article-26131.html", "direccion": "Esmeralda 749", "nombre": "Posada del Corregidor", "longitud": -70.61547, "latitud": -33.542495, "comuna": "Santiago", "precio": null, "horarios": null, "nick": "posada\n"}}, {"type": "Feature", "geometry": {"type": "Point", "coordinates": [-70.642405, -33.437325]}, "properties": {"cartodb_id": 49, "telefono": null, "web": "http://www.plopgaleria.com/", "direccion": "Merced 349", "nombre": "Galer\u00c3\u00ada Plop!   ", "longitud": -70.642405, "latitud": -33.437325, "comuna": "Santiago", "precio": null, "horarios": null, "nick": null}}, {"type": "Feature", "geometry": {"type": "Point", "coordinates": [-70.538102, -33.419406]}, "properties": {"cartodb_id": 3, "telefono": "+56 22 8969895", "web": "http://www.culturallascondes.cl/home2/santa-rosa-de-apoquindo", "direccion": "Avda. Padre Hurtado Sur 1195", "nombre": "Casa Museo Santa Rosa de Apoquindo", "longitud": -70.5718626, "latitud": -33.4080772, "comuna": "Las Condes", "precio": null, "horarios": null, "nick": "santarosa"}}, {"type": "Feature", "geometry": {"type": "Point", "coordinates": [-70.636202, -33.447321]}, "properties": {"cartodb_id": 80, "telefono": null, "web": null, "direccion": "Santa Victoria 0316", "nombre": "Taller 0316", "longitud": -70.6362022, "latitud": -33.4473214, "comuna": "Providencia", "precio": null, "horarios": null, "nick": null}}, {"type": "Feature", "geometry": {"type": "Point", "coordinates": [-70.683703, -33.443936]}, "properties": {"cartodb_id": 5, "telefono": "", "web": "http://www.artequin.cl", "direccion": "Avda Portales 3530", "nombre": "Museo Artequin", "longitud": -70.6837, "latitud": -33.4439, "comuna": "Estacion Central", "precio": null, "horarios": null, "nick": "artequin"}}, {"type": "Feature", "geometry": {"type": "Point", "coordinates": [-70.65002, -33.43722]}, "properties": {"cartodb_id": 33, "telefono": "", "web": "", "direccion": "Parque Quinta Normal", "nombre": "Museo Nacional de Historia Natural", "longitud": -70.65, "latitud": -33.4372, "comuna": "Santiago", "precio": null, "horarios": null, "nick": null}}, {"type": "Feature", "geometry": {"type": "Point", "coordinates": [-70.65002, -33.43722]}, "properties": {"cartodb_id": 36, "telefono": "", "web": "", "direccion": "Alonso de Sotomayor 4110", "nombre": "Museo Ralli", "longitud": -70.65, "latitud": -33.4372, "comuna": "Vitacura", "precio": null, "horarios": "Ma-Do 10:30-17", "nick": null}}, {"type": "Feature", "geometry": {"type": "Point", "coordinates": [-70.684189, -33.443268]}, "properties": {"cartodb_id": 18, "telefono": "226814627", "web": "corpdicyt.cl\n", "direccion": "Calle Interior Quinta Normal", "nombre": "Museo Ferroviario", "longitud": -70.6841892, "latitud": -33.44326751, "comuna": "Santiago", "precio": null, "horarios": null, "nick": null}}, {"type": "Feature", "geometry": {"type": "Point", "coordinates": [-70.679568, -33.440266]}, "properties": {"cartodb_id": 15, "telefono": "225979600", "web": "museodelamemoria.cl", "direccion": "Avenida Matucana 501", "nombre": "Museo de la Memoria y los Derechos Humanos", "longitud": -70.67956811, "latitud": -33.44026628, "comuna": "Santiago", "precio": null, "horarios": null, "nick": null}}, {"type": "Feature", "geometry": {"type": "Point", "coordinates": [-70.644208, -33.435183]}, "properties": {"cartodb_id": 29, "telefono": "", "web": "mac.uchile.cl\n", "direccion": "Ismael Valdes Vergara", "nombre": "Museo de Arte Contempor\u00c3\u00a1neo (P. Forestal)", "longitud": -70.644208, "latitud": -33.435183, "comuna": "Santiago", "precio": null, "horarios": null, "nick": null}}, {"type": "Feature", "geometry": {"type": "Point", "coordinates": [-70.680799, -33.44184]}, "properties": {"cartodb_id": 14, "telefono": "226818169", "web": "museodelaeducacion.cl\n", "direccion": "Chacabuco 365", "nombre": "Museo de la Educaci\u00c3\u00b3n Gabriela Mistral", "longitud": -70.6807987, "latitud": -33.4418395, "comuna": "Santiago", "precio": null, "horarios": null, "nick": null}}, {"type": "Feature", "geometry": {"type": "Point", "coordinates": [-70.650577, -33.43727]}, "properties": {"cartodb_id": 21, "telefono": "224117000", "web": "", "direccion": "Plaza de Armas 951", "nombre": "Museo Hist\u00c3\u00b3rico Nacional", "longitud": -70.65057718, "latitud": -33.43726955, "comuna": "Santiago", "precio": null, "horarios": null, "nick": null}}, {"type": "Feature", "geometry": {"type": "Point", "coordinates": [-70.598011, -33.414456]}, "properties": {"cartodb_id": 23, "telefono": "(2) 2963 7180", "web": "http://mui.cl", "direccion": "Isidora Goyenechea 3400", "nombre": "Museo Interactivo Audiovisual", "longitud": -70.5980108, "latitud": -33.4144564, "comuna": "Las Condes", "precio": null, "horarios": null, "nick": null}}, {"type": "Feature", "geometry": {"type": "Point", "coordinates": [-70.633479, -33.436889]}, "properties": {"cartodb_id": 50, "telefono": null, "web": "http://www.fundaciontelefonica.cl/", "direccion": "Providencia 111", "nombre": "Fundaci\u00c3\u00b3n Telef\u00c3\u00b3nica", "longitud": -70.633479, "latitud": -33.436889, "comuna": "Providencia", "precio": null, "horarios": null, "nick": null}}, {"type": "Feature", "geometry": {"type": "Point", "coordinates": [-70.646847, -33.439006]}, "properties": {"cartodb_id": 25, "telefono": "", "web": "museolamerced.cl", "direccion": "Mac-Iver 341", "nombre": "Museo La Merced", "longitud": -70.64684701, "latitud": -33.43900639, "comuna": "Santiago", "precio": null, "horarios": null, "nick": null}}, {"type": "Feature", "geometry": {"type": "Point", "coordinates": [-70.647038, -33.424786]}, "properties": {"cartodb_id": 20, "telefono": "", "web": "http://museodominico.cl", "direccion": "Recoleta 683", "nombre": "Museo Hist\u00c3\u00b3rico Dominico", "longitud": -70.6470385, "latitud": -33.4247862, "comuna": "Recoleta", "precio": null, "horarios": null, "nick": null}}, {"type": "Feature", "geometry": {"type": "Point", "coordinates": [-70.669271, -33.45422]}, "properties": {"cartodb_id": 17, "telefono": "", "web": "http://mssa.cl", "direccion": "Av. Rep\u00c3\u00bablica 475", "nombre": "Museo de La Solidaridad Salvador Allende", "longitud": -70.6692714, "latitud": -33.4542205, "comuna": "Santiago", "precio": null, "horarios": null, "nick": null}}, {"type": "Feature", "geometry": {"type": "Point", "coordinates": [-70.698507, -33.486666]}, "properties": {"cartodb_id": 27, "telefono": "22435 3030", "web": "http://www.museoaeronautico.gob.cl/", "direccion": "Avda Pedro Aguirre Cerda 5000", "nombre": "Museo Aeron\u00c3\u00a1utico y del Espacio", "longitud": -70.69850693, "latitud": -33.48666616, "comuna": "Cerrillos", "precio": null, "horarios": null, "nick": null}}, {"type": "Feature", "geometry": {"type": "Point", "coordinates": [-70.640909, -33.438191]}, "properties": {"cartodb_id": 74, "telefono": null, "web": "https://www.casaodelastarria.com/", "direccion": "Villavicencio 395", "nombre": "Espacio O", "longitud": -70.640909, "latitud": -33.438191, "comuna": "Santiago", "precio": null, "horarios": null, "nick": "o"}}, {"type": "Feature", "geometry": {"type": "Point", "coordinates": [-70.660276, -33.502117]}, "properties": {"cartodb_id": 63, "telefono": null, "web": "http://www.museoacieloabiertoensanmiguel.cl/", "direccion": "Avda Departamental 1390", "nombre": "Museo a Cielo Abierto San Miguel", "longitud": -70.660276, "latitud": -33.502117, "comuna": "San Miguel", "precio": null, "horarios": null, "nick": null}}, {"type": "Feature", "geometry": {"type": "Point", "coordinates": [-70.656269, -33.456267]}, "properties": {"cartodb_id": 22, "telefono": "226949912", "web": "http://mhm.cl", "direccion": "Av. Blanco Encalada 1550", "nombre": "Museo Hist\u00c3\u00b3rico y Militar", "longitud": -70.65626917, "latitud": -33.45626686, "comuna": "Santiago", "precio": null, "horarios": null, "nick": null}}, {"type": "Feature", "geometry": {"type": "Point", "coordinates": [-70.71276, -33.5064]}, "properties": {"cartodb_id": 55, "telefono": "224024903", "web": null, "direccion": "Camino a Lonqu\u00c3\u00a9n 7518", "nombre": "Centro Cultural T\u00c3\u00ado Lalo Parra", "longitud": -70.71276, "latitud": -33.5064, "comuna": "Cerrillos", "precio": null, "horarios": null, "nick": null}}, {"type": "Feature", "geometry": {"type": "Point", "coordinates": [-70.610666, -33.518438]}, "properties": {"cartodb_id": 24, "telefono": "228288000", "web": "mim.cl\n", "direccion": "Av. Punta Arenas 6711", "nombre": "Museo Interactivo Mirador", "longitud": -70.61066572, "latitud": -33.51843784, "comuna": "La Granja", "precio": null, "horarios": null, "nick": null}}, {"type": "Feature", "geometry": {"type": "Point", "coordinates": [-70.61276, -33.424149]}, "properties": {"cartodb_id": 44, "telefono": null, "web": "http://www.culturaprovidencia.cl/", "direccion": "Nueva Providencia 1995", "nombre": "Fundaci\u00c3\u00b3n Cultural de Providencia ", "longitud": -70.61276, "latitud": -33.424149, "comuna": "Providencia", "precio": null, "horarios": null, "nick": null}}, {"type": "Feature", "geometry": {"type": "Point", "coordinates": [-70.588907, -33.398343]}, "properties": {"cartodb_id": 16, "telefono": "222193623", "web": "www.museodelamoda.cl", "direccion": "Av Vitacura 4562", "nombre": "Museo de la Moda", "longitud": -70.5889071, "latitud": -33.3983427, "comuna": "Vitacura", "precio": null, "horarios": null, "nick": null}}, {"type": "Feature", "geometry": {"type": "Point", "coordinates": [-70.654275, -33.436259]}, "properties": {"cartodb_id": 51, "telefono": null, "web": "http://salagasco.cl/sala_expo_actual.html", "direccion": "Santo Domingo 1061", "nombre": "Sala Gasco", "longitud": -70.654275, "latitud": -33.436259, "comuna": "Santiago", "precio": null, "horarios": null, "nick": null}}, {"type": "Feature", "geometry": {"type": "Point", "coordinates": [-70.644208, -33.435183]}, "properties": {"cartodb_id": 32, "telefono": "224991600", "web": "www.mnba.cl", "direccion": "Jose Miguel de la Barra 650", "nombre": "Museo Nacional de Bellas Artes", "longitud": -70.64305835, "latitud": -33.43542921, "comuna": "Santiago", "precio": null, "horarios": null, "nick": null}}, {"type": "Feature", "geometry": {"type": "Point", "coordinates": [-70.641899, -33.474688]}, "properties": {"cartodb_id": 65, "telefono": null, "web": "www.factoriasantarosa.com", "direccion": "Avda Santa Rosa 2260", "nombre": "Factoria Santa Rosa", "longitud": -70.641899, "latitud": -33.474688, "comuna": "Santiago", "precio": null, "horarios": null, "nick": "factoriasantarosa"}}, {"type": "Feature", "geometry": {"type": "Point", "coordinates": [-70.650837, -33.487414]}, "properties": {"cartodb_id": 64, "telefono": null, "web": "https://es.wikipedia.org/wiki/Parque_del_C%C3%B3mic_de_San_Miguel", "direccion": null, "nombre": "Parque del Comic", "longitud": -70.650837, "latitud": -33.487414, "comuna": "San Miguel", "precio": null, "horarios": null, "nick": "comic"}}, {"type": "Feature", "geometry": {"type": "Point", "coordinates": [-70.62306, -33.42918]}, "properties": {"cartodb_id": 56, "telefono": null, "web": "http://www.galeriatajamar.com/", "direccion": "P\u00c3\u00a9rez Valenzuela 1087", "nombre": "Galer\u00c3\u00ada Tajamar", "longitud": -70.62306, "latitud": -33.42918, "comuna": "Providencia", "precio": null, "horarios": null, "nick": null}}, {"type": "Feature", "geometry": {"type": "Point", "coordinates": [-70.562019, -33.407109]}, "properties": {"cartodb_id": 53, "telefono": null, "web": "http://www.culturallascondes.cl", "direccion": "Apoquindo 6570", "nombre": "Corporaci\u00c3\u00b3n Cultural Las Condes", "longitud": -70.562019, "latitud": -33.407109, "comuna": "Las Condes", "precio": null, "horarios": null, "nick": null}}, {"type": "Feature", "geometry": {"type": "Point", "coordinates": [-70.68588, -33.440045]}, "properties": {"cartodb_id": 13, "telefono": "", "web": "mucytec.cl\n", "direccion": "Matucana", "nombre": "Museo de Ciencia y Tecnolog\u00c3\u00ada", "longitud": -70.6858796, "latitud": -33.4400454, "comuna": "Santiago", "precio": null, "horarios": null, "nick": null}}, {"type": "Feature", "geometry": {"type": "Point", "coordinates": [-70.634886, -33.438598]}, "properties": {"cartodb_id": 38, "telefono": "223554600", "web": "http://museovioletaparra.cl", "direccion": "Vicu\u00c3\u00b1a Mackenna 37", "nombre": "Museo Violeta Parra", "longitud": -70.6372857, "latitud": -33.438673, "comuna": "Providencia", "precio": null, "horarios": null, "nick": null}}, {"type": "Feature", "geometry": {"type": "Point", "coordinates": [-70.604543, -33.416235]}, "properties": {"cartodb_id": 48, "telefono": null, "web": "http://www.ccuenelarte.cl/", "direccion": "Vitacura 2680", "nombre": "Sala de Arte CCU", "longitud": -70.604543, "latitud": -33.416235, "comuna": "Las Condes", "precio": null, "horarios": null, "nick": "ccu"}}, {"type": "Feature", "geometry": {"type": "Point", "coordinates": [-70.599986, -33.396864]}, "properties": {"cartodb_id": 40, "telefono": "", "web": "http://galeriapready.cl/", "direccion": "Espoz 3125", "nombre": "Galer\u00c3\u00ada de Arte Patricia Ready", "longitud": -70.5999857, "latitud": -33.3968645, "comuna": "Vitacura", "precio": null, "horarios": null, "nick": null}}, {"type": "Feature", "geometry": {"type": "Point", "coordinates": [-70.62037, -33.44219]}, "properties": {"cartodb_id": 43, "telefono": "+ 562 2 2690401", "web": "http://dieecke.cl/", "direccion": "Jos\u00c3\u00a9 Manuel Infante 1208", "nombre": "Die Ecke", "longitud": -70.62037, "latitud": -33.44219, "comuna": "Providencia", "precio": null, "horarios": null, "nick": null}}, {"type": "Feature", "geometry": {"type": "Point", "coordinates": [-70.638026, -33.432027]}, "properties": {"cartodb_id": 75, "telefono": null, "web": null, "direccion": "Antonia L\u00c3\u00b3pez de Bello 77", "nombre": "Galeria Salustiano Casanova", "longitud": -70.638026, "latitud": -33.432027, "comuna": "Recoleta", "precio": null, "horarios": null, "nick": null}}, {"type": "Feature", "geometry": null, "properties": {"cartodb_id": 84, "telefono": null, "web": null, "direccion": "Dieciocho 438", "nombre": "Galer\u00c3\u00ada Cava", "longitud": null, "latitud": null, "comuna": "Santiago", "precio": null, "horarios": null, "nick": null}}, {"type": "Feature", "geometry": {"type": "Point", "coordinates": [-70.65002, -33.43722]}, "properties": {"cartodb_id": 28, "telefono": "", "web": "http://museoandino.cl\n", "direccion": "Camino Padre Hurtado 0695", "nombre": "Museo Andino (Vi\u00c3\u00b1a Santa Rita)", "longitud": -70.65, "latitud": -33.4372, "comuna": "Buin", "precio": null, "horarios": null, "nick": null}}, {"type": "Feature", "geometry": null, "properties": {"cartodb_id": 85, "telefono": null, "web": "http://www.museodelsonido.cl", "direccion": "Hu\u00c3\u00a9rfanos 2919", "nombre": "Museo del Sonido", "longitud": -70.675739, "latitud": -33.442262, "comuna": "Santiago", "precio": null, "horarios": "Ma-Do 10-18", "nick": null}}, {"type": "Feature", "geometry": {"type": "Point", "coordinates": [-70.692435, -33.498198]}, "properties": {"cartodb_id": 54, "telefono": null, "web": "http://centronacionaldearte.cl/", "direccion": "Pedro Aguirre Cerda 6100", "nombre": "Centro Nacional de Arte Cerrillos", "longitud": -70.6924, "latitud": -33.4982, "comuna": "Cerrillos", "precio": null, "horarios": null, "nick": null}}, {"type": "Feature", "geometry": {"type": "Point", "coordinates": [-70.65002, -33.43722]}, "properties": {"cartodb_id": 34, "telefono": "", "web": "", "direccion": "Av. Viel 1071-1653", "nombre": "Museo Paleontol\u00c3\u00b3gico de Chile", "longitud": -70.65, "latitud": -33.4372, "comuna": "Santiago", "precio": null, "horarios": null, "nick": null}}, {"type": "Feature", "geometry": {"type": "Point", "coordinates": [-70.612987, -33.419982]}, "properties": {"cartodb_id": 35, "telefono": "", "web": "", "direccion": "Santa Mar\u00c3\u00ada 2205", "nombre": "Museo Parque de las Esculturas", "longitud": -70.613, "latitud": -33.42, "comuna": "Providencia", "precio": null, "horarios": "10-19", "nick": null}}, {"type": "Feature", "geometry": {"type": "Point", "coordinates": [-70.645242, -33.441944]}, "properties": {"cartodb_id": 39, "telefono": "", "web": "", "direccion": "Miraflores 50", "nombre": "Archivo Nacional de Chile", "longitud": 70.645242, "latitud": -33.441944, "comuna": "Santiago", "precio": null, "horarios": null, "nick": null}}, {"type": "Feature", "geometry": {"type": "Point", "coordinates": [-70.624056, -33.431551]}, "properties": {"cartodb_id": 41, "telefono": null, "web": "http://cce.cl", "direccion": "Providencia 927", "nombre": "Centro Cultural de Espa\u00c3\u00b1a", "longitud": -70.6241, "latitud": -33.4316, "comuna": "Providencia", "precio": null, "horarios": null, "nick": null}}, {"type": "Feature", "geometry": {"type": "Point", "coordinates": [-70.653773, -33.443635]}, "properties": {"cartodb_id": 42, "telefono": null, "web": "http://ccplm.cl", "direccion": "Plaza de la Ciudadan\u00c3\u00ada 26", "nombre": "Centro Cultural Palacio La Moneda   ", "longitud": -70.6538, "latitud": -33.4436, "comuna": "Santiago", "precio": null, "horarios": null, "nick": null}}, {"type": "Feature", "geometry": {"type": "Point", "coordinates": [-70.65002, -33.43722]}, "properties": {"cartodb_id": 30, "telefono": "229771765", "web": "mac.uchile.cl\n", "direccion": "Matucana 464", "nombre": "Museo de Arte Contempor\u00c3\u00a1neo (Quinta Normal", "longitud": -70.65002, "latitud": -33.43722, "comuna": "Santiago", "precio": null, "horarios": null, "nick": null}}, {"type": "Feature", "geometry": {"type": "Point", "coordinates": [-70.65002, -33.43722]}, "properties": {"cartodb_id": 31, "telefono": "222229642", "web": "http://www.museovicunamackenna.cl/", "direccion": "Vicuna Mackenna 94", "nombre": "Museo Nacional Benjam\u00c3\u00adn Vicu\u00c3\u00b1a Mackenna", "longitud": -70.65002, "latitud": -33.4372, "comuna": "Providencia", "precio": null, "horarios": null, "nick": null}}, {"type": "Feature", "geometry": {"type": "Point", "coordinates": [-70.65002, -33.43722]}, "properties": {"cartodb_id": 37, "telefono": "226980875", "web": "", "direccion": "Compa\u00c3\u00b1\u00c3\u00ada de Jes\u00c3\u00bas 1340", "nombre": "Museo Sociedad Nacional Bellas Artes (Alhambra)", "longitud": -70.65, "latitud": -33.4372, "comuna": "Santiago", "precio": null, "horarios": null, "nick": null}}]}