{"type": "FeatureCollection", "features": [{"type": "Feature", "geometry": {"type": "Point", "coordinates": [-71.524561, -32.922798]}, "properties": {"name": "Playa Amarilla", "direccion": "Playa Amarilla, Conc\u00c3\u00b3n"}}, {"type": "Feature", "geometry": {"type": "Point", "coordinates": [-71.517395, -32.921306]}, "properties": {"name": "Casa Maroto", "direccion": "Maroto 635, Conc\u00c3\u00b3n"}}, {"type": "Feature", "geometry": {"type": "Point", "coordinates": [-71.516765, -32.920271]}, "properties": {"name": "Historical and Archaeological Museum of Concon", "direccion": "Sta Laura 470, Conc\u00c3\u00b3n"}}, {"type": "Feature", "geometry": {"type": "Point", "coordinates": [-71.515192, -32.921481]}, "properties": {"name": "Centro Art\u00c3\u00adstico y Espiritual \"Dharma\"", "direccion": "Calle 8 375, Conc\u00c3\u00b3n"}}, {"type": "Feature", "geometry": {"type": "Point", "coordinates": [-71.508319, -32.92097]}, "properties": {"name": "Palmera Hist\u00c3\u00b3rica de Conc\u00c3\u00b3n", "direccion": "23577, Av. Borgo\u00c3\u00b1o 25350, Conc\u00c3\u00b3n, Quintero"}}, {"type": "Feature", "geometry": {"type": "Point", "coordinates": [-71.443042, -32.933858]}, "properties": {"name": "Homenaje a los marinos y soldados ca\u00c3\u00addos en la batalla de Conc\u00c3\u00b3n", "direccion": "Ruta 60, Conc\u00c3\u00b3n"}}, {"type": "Feature", "geometry": {"type": "Point", "coordinates": [-71.542326, -32.934053]}, "properties": {"name": "Farmacias Salcobrand", "direccion": "Av. Concon Re\u00c3\u00b1aca 3850-1004, Vi\u00c3\u00b1a del Mar, Conc\u00c3\u00b3n"}}, {"type": "Feature", "geometry": {"type": "Point", "coordinates": [-71.518284, -32.931775]}, "properties": {"name": "Farmacias del Dr. Simi", "direccion": "Magallanes 1050, Conc\u00c3\u00b3n"}}, {"type": "Feature", "geometry": {"type": "Point", "coordinates": [-71.519366, -32.930271]}, "properties": {"name": "Farmacias Ahumada", "direccion": "Los Manantiales 1180, Conc\u00c3\u00b3n"}}, {"type": "Feature", "geometry": {"type": "Point", "coordinates": [-71.532692, -32.933857]}, "properties": {"name": "Pet Supermarket", "direccion": "Av. Concon Re\u00c3\u00b1aca 256, Conc\u00c3\u00b3n"}}, {"type": "Feature", "geometry": {"type": "Point", "coordinates": [-71.529675, -32.933871]}, "properties": {"name": "Farmacia Geofarma Concon", "direccion": "Valpara\u00c3\u00adso, Conc\u00c3\u00b3n"}}, {"type": "Feature", "geometry": {"type": "Point", "coordinates": [-71.536603, -32.93406]}, "properties": {"name": "Farmacias Toga", "direccion": "Av. Concon Re\u00c3\u00b1aca 110, Local 5, Conc\u00c3\u00b3n"}}, {"type": "Feature", "geometry": {"type": "Point", "coordinates": [-71.545844, -32.943711]}, "properties": {"name": "Cruz Verde pharmacy", "direccion": "Los Ginkos 5, Conc\u00c3\u00b3n"}}, {"type": "Feature", "geometry": {"type": "Point", "coordinates": [-71.545895, -32.939549]}, "properties": {"name": "Farmacias Cruz Verde", "direccion": "Conc\u00c3\u00b3n"}}, {"type": "Feature", "geometry": {"type": "Point", "coordinates": [-71.509982, -32.920136]}, "properties": {"name": "Farmacia Montemar", "direccion": "Av. Borgo\u00c3\u00b1o 25180, Conc\u00c3\u00b3n"}}, {"type": "Feature", "geometry": {"type": "Point", "coordinates": [-71.542727, -32.943275]}, "properties": {"name": "Montemar Veterinaria 24 horas Conc\u00c3\u00b3n", "direccion": "Av. Bosque de Montemar 770, Conc\u00c3\u00b3n"}}, {"type": "Feature", "geometry": {"type": "Point", "coordinates": [-71.543981, -32.956591]}, "properties": {"name": "Farmacia Cruz Verde 023", "direccion": "Av Edmundo Eluchans 2145, Vi\u00c3\u00b1a del Mar, Conc\u00c3\u00b3n"}}, {"type": "Feature", "geometry": {"type": "Point", "coordinates": [-71.542335, -32.949881]}, "properties": {"name": "Farmacias Hogan", "direccion": "Av. Bosque de Montemar 65, Conc\u00c3\u00b3n"}}, {"type": "Feature", "geometry": {"type": "Point", "coordinates": [-71.52234, -32.922361]}, "properties": {"name": "Salco Brand Re\u00c3\u00b1aca", "direccion": "Barros, Conc\u00c3\u00b3n"}}, {"type": "Feature", "geometry": {"type": "Point", "coordinates": [-71.517911, -32.932813]}, "properties": {"name": "Farmacia Cruz Verde 9029", "direccion": "Avda Magallanes 1050 L1 interior Hipermercado Lider Conc\u00c3\u00b3n"}}, {"type": "Feature", "geometry": {"type": "Point", "coordinates": [-71.510826, -32.926028]}, "properties": {"name": "1er Traslado", "direccion": "santa genova, Conc\u00c3\u00b3n"}}, {"type": "Feature", "geometry": {"type": "Point", "coordinates": [-71.531259, -32.936321]}, "properties": {"name": "Gorilas", "direccion": "R\u00c3\u00ado Aconcagua 310, Conc\u00c3\u00b3n"}}, {"type": "Feature", "geometry": {"type": "Point", "coordinates": [-71.532684, -32.933952]}, "properties": {"name": "PADRISIMO RESTAURANT EMPANADAS", "direccion": "Av. Concon Re\u00c3\u00b1aca 256, Conc\u00c3\u00b3n"}}, {"type": "Feature", "geometry": {"type": "Point", "coordinates": [-71.5337, -32.942484]}, "properties": {"name": "Oz Foods", "direccion": "Av. Blanca Estela 1258, Conc\u00c3\u00b3n"}}, {"type": "Feature", "geometry": {"type": "Point", "coordinates": [-71.541308, -32.931665]}, "properties": {"name": "Empanadas Donde Huayi", "direccion": "Paseo eL Prado 8, Conc\u00c3\u00b3n"}}, {"type": "Feature", "geometry": {"type": "Point", "coordinates": [-71.524794, -32.925572]}, "properties": {"name": "Restaurante Girafinha da Melancia", "direccion": "Vergara 198 - Barrio Los Romeros"}}, {"type": "Feature", "geometry": {"type": "Point", "coordinates": [-71.538821, -32.931198]}, "properties": {"name": "FARO de los Compadres", "direccion": "Paseo eL Prado 2585, Conc\u00c3\u00b3n"}}, {"type": "Feature", "geometry": {"type": "Point", "coordinates": [-71.50802, -32.921129]}, "properties": {"name": "Empanadas Fritas Las Deliciosas", "direccion": "Av. Borgo\u00c3\u00b1o 25370, Conc\u00c3\u00b3n"}}, {"type": "Feature", "geometry": {"type": "Point", "coordinates": [-71.525658, -32.924683]}, "properties": {"name": "Nikko Seafood and Sushi", "direccion": "Av. Borgo\u00c3\u00b1o 22902, Conc\u00c3\u00b3n"}}, {"type": "Feature", "geometry": {"type": "Point", "coordinates": [-71.537719, -32.932155]}, "properties": {"name": "Club de Pedro y Fabiola", "direccion": "Los Pescadores 41, Conc\u00c3\u00b3n"}}, {"type": "Feature", "geometry": {"type": "Point", "coordinates": [-71.533695, -32.934016]}, "properties": {"name": "Saz\u00c3\u00b3n Canaria", "direccion": "Av. Concon Re\u00c3\u00b1aca 210, Conc\u00c3\u00b3n"}}, {"type": "Feature", "geometry": {"type": "Point", "coordinates": [-71.541725, -32.932029]}, "properties": {"name": "Pic\u00c3\u00a1 Los Canalla", "direccion": "San Pedro manzana E casa 10 higuerilla"}}, {"type": "Feature", "geometry": {"type": "Point", "coordinates": [-71.525997, -32.924636]}, "properties": {"name": "Restaurante WineCaina", "direccion": "Avenida Borgo\u00c3\u00b1o 22900 Conc\u00c3\u00b3n"}}, {"type": "Feature", "geometry": {"type": "Point", "coordinates": [-71.539949, -32.930838]}, "properties": {"name": "El Salmon Restaurant", "direccion": "A Morales 225a, Conc\u00c3\u00b3n"}}, {"type": "Feature", "geometry": {"type": "Point", "coordinates": [-71.524107, -32.923324]}, "properties": {"name": "Restaurant Punta Del Este", "direccion": "Av. Borgo\u00c3\u00b1o 23120, Conc\u00c3\u00b3n"}}, {"type": "Feature", "geometry": {"type": "Point", "coordinates": [-71.512677, -32.920216]}, "properties": {"name": "The Monkey\u00e2\u0080\u0099s House", "direccion": "Av. Borgo\u00c3\u00b1o 23199, Conc\u00c3\u00b3n"}}, {"type": "Feature", "geometry": {"type": "Point", "coordinates": [-71.540873, -32.930366]}, "properties": {"name": "Te Encantar\u00c3\u00a1 Restaurant", "direccion": "Pasaje 131, Higuerilla Alto,, Siempre Viva, Conc\u00c3\u00b3n"}}, {"type": "Feature", "geometry": {"type": "Point", "coordinates": [-71.539594, -32.930742]}, "properties": {"name": "Alto Mar by La Gatita", "direccion": "-198, A Morales 100, Conc\u00c3\u00b3n"}}, {"type": "Feature", "geometry": {"type": "Point", "coordinates": [-71.518289, -32.920383]}, "properties": {"name": "RESTAURANT SANTABRASA DEL MAR", "direccion": "Sta Elena 671, Conc\u00c3\u00b3n"}}, {"type": "Feature", "geometry": {"type": "Point", "coordinates": [-71.539288, -32.929724]}, "properties": {"name": "Aqu\u00c3\u00ad Jaime", "direccion": "Av. Borgo\u00c3\u00b1o 21303, Conc\u00c3\u00b3n"}}, {"type": "Feature", "geometry": {"type": "Point", "coordinates": [-71.518364, -32.918804]}, "properties": {"name": "Mar y Tierra", "direccion": "Av. Borgo\u00c3\u00b1o 24220, Conc\u00c3\u00b3n"}}, {"type": "Feature", "geometry": {"type": "Point", "coordinates": [-71.523058, -32.941918]}, "properties": {"name": "Botilleria Boutique Quinta Barrica", "direccion": "Valpara\u00c3\u00adso CL, Av. Blanca Estela 1927, Local 9, Conc\u00c3\u00b3n"}}, {"type": "Feature", "geometry": {"type": "Point", "coordinates": [-71.509285, -32.923718]}, "properties": {"name": "Botilleria LA PLAYA", "direccion": "San Agust\u00c3\u00adn 1360, Conc\u00c3\u00b3n"}}, {"type": "Feature", "geometry": {"type": "Point", "coordinates": [-71.53405, -32.933757]}, "properties": {"name": "Botiller\u00c3\u00ada Migre", "direccion": "195, De Re\u00c3\u00b1aca A Conc\u00c3\u00b3n, Conc\u00c3\u00b3n"}}, {"type": "Feature", "geometry": {"type": "Point", "coordinates": [-71.526998, -32.934834]}, "properties": {"name": "Botiller\u00c3\u00ada La Urgencia", "direccion": "R\u00c3\u00ado Aconcagua 496, Conc\u00c3\u00b3n"}}, {"type": "Feature", "geometry": {"type": "Point", "coordinates": [-71.516195, -32.921277]}, "properties": {"name": "Botilleria Don Gato", "direccion": "Maroto 805, Conc\u00c3\u00b3n"}}, {"type": "Feature", "geometry": {"type": "Point", "coordinates": [-71.531368, -32.933733]}, "properties": {"name": "Botilleria Milene", "direccion": "Av. Concon Re\u00c3\u00b1aca 210-298, Conc\u00c3\u00b3n"}}, {"type": "Feature", "geometry": {"type": "Point", "coordinates": [-71.541322, -32.934204]}, "properties": {"name": "botilleria el alto", "direccion": "Conc\u00c3\u00b3n"}}, {"type": "Feature", "geometry": {"type": "Point", "coordinates": [-71.532919, -32.933749]}, "properties": {"name": "Distribuidora Marcet", "direccion": "Av. Concon Re\u00c3\u00b1aca 243, local 4, Conc\u00c3\u00b3n"}}, {"type": "Feature", "geometry": {"type": "Point", "coordinates": [-71.521557, -32.933585]}, "properties": {"name": "ALMAC\u00c3\u0089N AMRA", "direccion": "Circunvalaci\u00c3\u00b3n 430 Conc\u00c3\u00b3n"}}, {"type": "Feature", "geometry": {"type": "Point", "coordinates": [-71.536609, -32.933985]}, "properties": {"name": "ALMACEN PARRILLERO EL HOGAR", "direccion": "Av. Concon Re\u00c3\u00b1aca 110, Local 4, Conc\u00c3\u00b3n"}}, {"type": "Feature", "geometry": {"type": "Point", "coordinates": [-71.536938, -32.934204]}, "properties": {"name": "MiniMarket La Kenita", "direccion": "Conc\u00c3\u00b3n"}}, {"type": "Feature", "geometry": {"type": "Point", "coordinates": [-71.525338, -32.933217]}, "properties": {"name": "Carnes JG", "direccion": "Las Encinas 1390, Conc\u00c3\u00b3n"}}, {"type": "Feature", "geometry": {"type": "Point", "coordinates": [-71.523082, -32.942004]}, "properties": {"name": "Minimarket Mercadito", "direccion": "Conc\u00c3\u00b3n"}}, {"type": "Feature", "geometry": {"type": "Point", "coordinates": [-71.528737, -32.93548]}, "properties": {"name": "Emporio Conc\u00c3\u00b3n", "direccion": "R\u00c3\u00ado Aconcagua 310, Conc\u00c3\u00b3n"}}, {"type": "Feature", "geometry": {"type": "Point", "coordinates": [-71.521405, -32.925678]}, "properties": {"name": "Minimarket Leiva", "direccion": "Vergara #420, Conc\u00c3\u00b3n"}}, {"type": "Feature", "geometry": {"type": "Point", "coordinates": [-71.532692, -32.933857]}, "properties": {"name": "Pet Supermarket", "direccion": "Av. Concon Re\u00c3\u00b1aca 256, Conc\u00c3\u00b3n"}}, {"type": "Feature", "geometry": {"type": "Point", "coordinates": [-71.543248, -32.971843]}, "properties": {"name": "Supermercado Don Homero", "direccion": "Av. Angamos 152, Vi\u00c3\u00b1a del Mar"}}, {"type": "Feature", "geometry": {"type": "Point", "coordinates": [-71.517842, -32.932474]}, "properties": {"name": "Lider Conc\u00c3\u00b3n", "direccion": "Magallanes 1050, Conc\u00c3\u00b3n"}}, {"type": "Feature", "geometry": {"type": "Point", "coordinates": [-71.517799, -32.932556]}, "properties": {"name": "Supermercado Lider", "direccion": "Magallanes 1050, Conc\u00c3\u00b3n"}}, {"type": "Feature", "geometry": {"type": "Point", "coordinates": [-71.546116, -32.939855]}, "properties": {"name": "Jumbo supermarket Concon", "direccion": "Av. Concon Re\u00c3\u00b1aca 3850, Conc\u00c3\u00b3n"}}, {"type": "Feature", "geometry": {"type": "Point", "coordinates": [-71.545427, -32.944048]}, "properties": {"name": "Express de Lider Con-C\u00c3\u00b3n", "direccion": "Las Hiedras 765, Conc\u00c3\u00b3n"}}, {"type": "Feature", "geometry": {"type": "Point", "coordinates": [-71.517047, -32.929677]}, "properties": {"name": "Tottus", "direccion": "Los Manantiales 955, Conc\u00c3\u00b3n"}}, {"type": "Feature", "geometry": {"type": "Point", "coordinates": [-71.51775, -32.929773]}, "properties": {"name": "TOTTUS", "direccion": "Manantiales N\u00c2\u00ba 955, Conc\u00c3\u00b3n"}}, {"type": "Feature", "geometry": {"type": "Point", "coordinates": [-71.518709, -32.930534]}, "properties": {"name": "Santa Isabel Conc\u00c3\u00b3n", "direccion": "Av, Los Manantiales 1021, Conc\u00c3\u00b3n"}}, {"type": "Feature", "geometry": {"type": "Point", "coordinates": [-71.52534, -32.933299]}, "properties": {"name": "Minimarket Las Encinas", "direccion": "Las Encinas 1390, Conc\u00c3\u00b3n"}}, {"type": "Feature", "geometry": {"type": "Point", "coordinates": [-71.517176, -32.923547]}, "properties": {"name": "Minimarket Chelita De Guadalupe", "direccion": "Conc\u00c3\u00b3n"}}, {"type": "Feature", "geometry": {"type": "Point", "coordinates": [-71.543831, -32.957236]}, "properties": {"name": "Supermercados Montserrat", "direccion": "Av Edmundo Eluchans 1980, Vi\u00c3\u00b1a del Mar, Conc\u00c3\u00b3n"}}, {"type": "Feature", "geometry": {"type": "Point", "coordinates": [-71.53455, -32.934089]}, "properties": {"name": "Erbi", "direccion": "Camino Concon Renaca 180, Conc\u00c3\u00b3n"}}, {"type": "Feature", "geometry": {"type": "Point", "coordinates": [-71.543285, -32.931193]}, "properties": {"name": "Minimarket", "direccion": "Las Pimpinelas 99-1, Conc\u00c3\u00b3n"}}, {"type": "Feature", "geometry": {"type": "Point", "coordinates": [-71.516576, -32.927262]}, "properties": {"name": "Huevos y frutos secos", "direccion": "Clarencia 849, Conc\u00c3\u00b3n"}}]}